[
  {
    "id": 145,
    "name": "BORACAY",
    "imageUrl": "https://i.ytimg.com/vi/sFGh4zBUKRw/maxresdefault.jpg",
    "price": 150,
    "priceCurrency": "PHP",
    "lat": 11.9673753,
    "lng": 121.92481499999997
  },
  {
    "id": 148,
    "name": "SIARGAO",
    "imageUrl": "https://i0.wp.com/mywanderstory.com/wp-content/uploads/2017/05/Siargao-Travel-Guide.png?fit=665%2C443&ssl=1",
    "price": 200,
    "priceCurrency": "PHP",
    "lat":9.8481883 ,
    "lng":126.04584369999998
  },
  {
    "id": 201,
    "name": "RIZAL PARK",
    "imageUrl": "https://media-cdn.tripadvisor.com/media/photo-s/09/c0/92/c3/rizal-park.jpg",
    "price": 50,
    "priceCurrency": "PHP",
    "lat": 14.5831177,
    "lng": 120.97941709999998
  },
  {
    "id": 205,
    "name": "HUNDRED ISLAND",
    "imageUrl": "https://d1sttufwfa12ee.cloudfront.net/uploads/deal/thumb/70885.jpg",
    "price": 100,
    "priceCurrency": "PHP",
    "lat": 16.2040011,
    "lng":120.04086870000003 
  },
  {
    "id": 210,
    "name": "MAYON VOLCANO",
    "imageUrl": "https://s.yimg.com/uu/api/res/1.2/nASKqwOcaRiD95HU_J8wzA--~B/aD0zNTY7dz00NzY7c209MTthcHBpZD15dGFjaHlvbg--/http://media.zenfs.com/en-PH/blogs/inbox/Cagsawa-ruins-with-Mayon-Volcano-at-the-background.-From-flickr..jpg",
    "price": 60,
    "priceCurrency": "PHP",
    "lat":13.254832 ,
    "lng": 123.68611239999996
  },
  {
    "id": 211,
    "name": "EL NIDO PALAWAN",
    "imageUrl": "https://steemitimages.com/DQmUsBnZ2yt8nqxpRXv1cgbNApgmniGAjQ59LAdEPoyNYDQ/DSC04901.jpg",
    "price": 90,
    "priceCurrency": "PHP",
    "lat":9.834949300000002,
    "lng": 118.7383615
  },
   {
    "id": 212,
    "name": "MOUNT APO",
    "imageUrl": "http://1.bp.blogspot.com/-5fNYQ6ODaDs/VZtaEmF7mDI/AAAAAAAAZr4/yv4_U1QEURw/s1600/mount_apo_davao_philippines.jpg",
    "price": 200,
    "priceCurrency": "PHP",
    "lat":6.987456099999999,
    "lng": 125.27099640000006
  },
  {
    "id": 213,
    "name": "ENCHANTED KINGDOM",
    "imageUrl": "https://i.ytimg.com/vi/ydbWZ5vODJ0/maxresdefault.jpg",
    "price": 120,
    "priceCurrency": "PHP",
    "lat":14.2822121,
    "lng": 121.09671249999997
  },
   {
    "id": 213,
    "name": "BANAUE RICE TERRACES",
    "imageUrl": "https://www.thepoortraveler.net/wp-content/uploads/2012/06/Banaue-Rice-Terraces.jpg",
    "price": 40,
    "priceCurrency": "PHP",
    "lat":16.9239537,
    "lng": 121.0556401
  },
  {
    "id": 213,
    "name": "KULTURA",
    "imageUrl": "http://www.kulturasplashwave.com/wp-content/uploads/2018/07/slide.jpg",
    "price": 200,
    "priceCurrency": "PHP",
    "lat":116.3209448,
    "lng": 120.4685633
  },
    {
    "id": 213,
    "name": "TUDINGAN FALLS",
    "imageUrl": "https://www.vigattintourism.com/assets/article_main_photos/optimize/1347697116x66Ar4TG.jpg",
    "price": 60,
    "priceCurrency": "PHP",
    "lat":16.573002,
    "lng": 120.4132139
  },
   {
    "id": 213,
    "name": "GRAPES FARM",
    "imageUrl": "https://i1.wp.com/www.themisischronicles.com/wp-content/uploads/2016/06/grapes-picking-cover.jpg",
    "price": 70,
    "priceCurrency": "PHP",
    "lat":16.4610866,
    "lng": 120.3317155
  },
  {
    "id": 213,
    "name": "DAL-LIPOEN NAGUILIAN LA UNION",
    "imageUrl": "https://upload.wikimedia.org/wikipedia/commons/thumb/6/6e/FvfLaUnion9945_33.JPG/300px-FvfLaUnion9945_33.JPG",
    "price": 70,
    "priceCurrency": "PHP",
    "lat":16.5391334,
    "lng": 120.3872939
  }
  
  
  
]
