[
  {
    "id": 145,
    "name": "Charm at the Steps of the Sacre Coeur/Montmartre",
    "imageUrl": "https://raw.githubusercontent.com/lewagon/flats-boilerplate/master/images/flat1.jpg",
    "price": 164,
    "priceCurrency": "EUR",
    "lat": 16.612239,
    "lng": 120.2825653
  },
  {
    "id": 148,
    "name": "Trendy Apt in Buttes Montmartre",
    "imageUrl": "https://raw.githubusercontent.com/lewagon/flats-boilerplate/master/images/flat2.jpg",
    "price": 200,
    "priceCurrency": "EUR",
    "lat": 16.6166662,
    "lng":120.2745785
  },
  {
    "id": 201,
    "name": "Super 60m2 in trendy neighborhood!",
    "imageUrl": "https://raw.githubusercontent.com/lewagon/flats-boilerplate/master/images/flat3.jpg",
    "price": 150,
    "priceCurrency": "EUR",
    "lat": 16.6167424,
    "lng": 120.2624938
  },
  {
    "id": 205,
    "name": "Splendide terrasse vue imprenable",
    "imageUrl": "https://raw.githubusercontent.com/lewagon/flats-boilerplate/master/images/flat4.jpg",
    "price": 115,
    "priceCurrency": "EUR",
    "lat": 16.6435777,
    "lng": 120.4466021
  },
  {
    "id": 210,
    "name": "Superbe vue à 2 min du Sacré Coeur",
    "imageUrl": "https://raw.githubusercontent.com/lewagon/flats-boilerplate/master/images/flat5.jpg",
    "price": 135,
    "priceCurrency": "EUR",
    "lat": 16.6570997,
    "lng": 120.3180062
  },
  {
    "id": 211,
    "name": "Bohemian and Chic in Paris",
    "imageUrl": "https://raw.githubusercontent.com/lewagon/flats-boilerplate/master/images/flat6.jpg",
    "price": 90,
    "priceCurrency": "EUR",
    "lat":16.6212054,
    "lng": 120.3153105
  }
]
