[
  {
    "id": 145,
    "name": "BORACAY",
    "imageUrl": "https://i.ytimg.com/vi/sFGh4zBUKRw/maxresdefault.jpg",
    "price": 150,
    "priceCurrency": "PHP",
    "lat": 11.9673753,
    "lng": 121.92481499999997
  },
  {
    "id": 148,
    "name": "SIARGAO",
    "imageUrl": "https://i0.wp.com/mywanderstory.com/wp-content/uploads/2017/05/Siargao-Travel-Guide.png?fit=665%2C443&ssl=1",
    "price": 200,
    "priceCurrency": "PHP",
    "lat":9.8481883 ,
    "lng":126.04584369999998
  },
  {
    "id": 201,
    "name": "RIZAL PARK",
    "imageUrl": "https://media-cdn.tripadvisor.com/media/photo-s/09/c0/92/c3/rizal-park.jpg",https://media-cdn.tripadvisor.com/media/photo-s/09/c0/92/c3/rizal-park.jpg
    "price": 50,
    "priceCurrency": "PHP",
    "lat": 14.5831177,
    "lng": 120.97941709999998
  },
  {
    "id": 205,
    "name": "HUNDRED ISLAND",
    "imageUrl": "https://d1sttufwfa12ee.cloudfront.net/uploads/deal/thumb/70885.jpg",
    "price": 100,
    "priceCurrency": "PHP",
    "lat": 16.2040011,
    "lng":120.04086870000003 
  },
  {
    "id": 210,
    "name": "LIGHT HOUSE",
    "imageUrl": "https://media-cdn.tripadvisor.com/media/photo-s/0f/d0/1c/9f/20170708-093606-largejpg.jpg",
    "price": 60,
    "priceCurrency": "PHP",
    "lat": 16.6149039,
    "lng": 120.28080669999997
  },
  {
    "id": 211,
    "name": "BAYWALK",
    "imageUrl": "http://tagudinseaside.com/pics/SanFernandoBayWalk2.jpg",
    "price": 90,
    "priceCurrency": "PHP",
    "lat":16.6190105,
    "lng": 120.289221
  },
   {
    "id": 212,
    "name": "PUGAD",
    "imageUrl": "https://c1.staticflickr.com/5/4042/5124634381_2c59787e26_b.jpg",
    "price": 200,
    "priceCurrency": "PHP",
    "lat":16.336675,
    "lng": 120.47881540000003
  },
  {
    "id": 213,
    "name": "BOTANICAL GARDEN",
    "imageUrl": "http://www.launiontayo.com.ph/wp-content/uploads/2017/10/botanical-garden.jpg",
    "price": 120,
    "priceCurrency": "PHP",
    "lat":16.5873334,
    "lng": 120.3637176
  },
   {
    "id": 213,
    "name": "BAUANG BEACH",
    "imageUrl": "https://ucarecdn.com/d78af50b-0b51-4813-84f8-ba822a333337/",
    "price": 40,
    "priceCurrency": "PHP",
    "lat":16.5638432,
    "lng": 120.3185109
  },
  {
    "id": 213,
    "name": "KULTURA",
    "imageUrl": "http://www.kulturasplashwave.com/wp-content/uploads/2018/07/slide.jpg",
    "price": 200,
    "priceCurrency": "PHP",
    "lat":116.3209448,
    "lng": 120.4685633
  },
    {
    "id": 213,
    "name": "TUDINGAN FALLS",
    "imageUrl": "https://www.vigattintourism.com/assets/article_main_photos/optimize/1347697116x66Ar4TG.jpg",
    "price": 60,
    "priceCurrency": "PHP",
    "lat":16.573002,
    "lng": 120.4132139
  },
   {
    "id": 213,
    "name": "GRAPES FARM",
    "imageUrl": "https://i1.wp.com/www.themisischronicles.com/wp-content/uploads/2016/06/grapes-picking-cover.jpg",
    "price": 70,
    "priceCurrency": "PHP",
    "lat":16.4610866,
    "lng": 120.3317155
  },
  {
    "id": 213,
    "name": "DAL-LIPOEN NAGUILIAN LA UNION",
    "imageUrl": "https://upload.wikimedia.org/wikipedia/commons/thumb/6/6e/FvfLaUnion9945_33.JPG/300px-FvfLaUnion9945_33.JPG",
    "price": 70,
    "priceCurrency": "PHP",
    "lat":16.5391334,
    "lng": 120.3872939
  }
  
  
  
]
